{
    "Browser History": [
        {
            "favicon_url": "https://www.google.com/favicon.ico",
            "page_transition": "LINK",
            "title": "Data tools - Download your data",
            "url": "https://takeout.google.com/settings/takeout?continue\u003dhttps%3A%2F%2Fmyactivity.google.com%2Fmore-activity%3Futm_source%3Dmy-account%26utm_campaign%3Dcontinue",
            "client_id": "zETy79fIcvgzD/aqN0WdoA\u003d\u003d",
            "time_usec": 1503199337151806
},
        {
            "favicon_url": "https://www.google.com/favicon.ico",
            "page_transition": "LINK",
            "title": "Google - My Activity",
            "url": "https://myactivity.google.com/more-activity?utm_source\u003dmy-account\u0026utm_campaign\u003dmy-acct-promo",
            "client_id": "zETy79fIcvgzD/aqN0WdoA\u003d\u003d",
            "time_usec": 1503199306243933
},
        {
            "favicon_url": "https://www.google.com/favicon.ico",
            "page_transition": "LINK",
            "title": "Google - My Activity",
            "url": "https://myactivity.google.com/myactivity?utm_source\u003dmy-account\u0026utm_medium\u003d\u0026utm_campaign\u003dmy-acct-promo",
            "client_id": "zETy79fIcvgzD/aqN0WdoA\u003d\u003d",
            "time_usec": 1503199293292933
},
        {
            "favicon_url": "https://myaccount.google.com/favicon.ico",
            "page_transition": "AUTO_BOOKMARK",
            "title": "My Account",
            "url": "https://myaccount.google.com/?utm_source\u003dOGB\u0026utm_medium\u003dact",
            "client_id": "zETy79fIcvgzD/aqN0WdoA\u003d\u003d",
            "time_usec": 1503199270808933
},
        {
            "favicon_url": "https://www.google.com/favicon.ico",
            "page_transition": "AUTO_TOPLEVEL",
            "title": "New Tab",
            "url": "chrome://newtab/",
            "client_id": "zETy79fIcvgzD/aqN0WdoA\u003d\u003d",
            "time_usec": 1503199262501933
},
        {
            "favicon_url": "https://www.google.com/favicon.ico",
            "page_transition": "LINK",
            "title": "Drive storage",
            "url": "https://www.google.com/settings/storage",
            "client_id": "zETy79fIcvgzD/aqN0WdoA\u003d\u003d",
            "time_usec": 1503199230511648
},
        {
            "favicon_url": "https://myaccount.google.com/favicon.ico",
            "page_transition": "LINK",
            "title": "Account preferences",
            "url": "https://myaccount.google.com/preferences?utm_source\u003dOGB\u0026utm_medium\u003dapp\u0026nlr\u003d1#storage",
            "client_id": "zETy79fIcvgzD/aqN0WdoA\u003d\u003d",
            "time_usec": 1503199220466648
},
        {
            "favicon_url": "https://myaccount.google.com/favicon.ico",
            "page_transition": "LINK",
            "title": "Sign-in \u0026 security",
            "url": "https://myaccount.google.com/security?utm_source\u003dOGB\u0026utm_medium\u003dapp\u0026nlr\u003d1#connectedapps",
            "client_id": "zETy79fIcvgzD/aqN0WdoA\u003d\u003d",
            "time_usec": 1503199205250648
},
        {
            "favicon_url": "https://myaccount.google.com/favicon.ico",
            "page_transition": "AUTO_BOOKMARK",
            "title": "My Account",
            "url": "https://myaccount.google.com/?utm_source\u003dOGB\u0026utm_medium\u003dapp\u0026nlr\u003d1",
            "client_id": "zETy79fIcvgzD/aqN0WdoA\u003d\u003d",
            "time_usec": 1503199177500043
},
        {
            "favicon_url": "https://www.google.com/favicon.ico",
            "page_transition": "AUTO_TOPLEVEL",
            "title": "New Tab",
            "url": "chrome://newtab/",
            "client_id": "zETy79fIcvgzD/aqN0WdoA\u003d\u003d",
            "time_usec": 1503199166952043
},
        {
            "favicon_url": "https://ssl.gstatic.com/images/branding/product/ico/google_plus_alldp.ico",
            "page_transition": "RELOAD",
            "title": "Google+",
            "url": "https://plus.google.com/u/0/",
            "client_id": "zETy79fIcvgzD/aqN0WdoA\u003d\u003d",
            "time_usec": 1503199148804043
},
        {
            "page_transition": "RELOAD",
            "title": "Yamato Tyler",
            "url": "https://m.facebook.com/yamatotyler/",
            "client_id": "zETy79fIcvgzD/aqN0WdoA\u003d\u003d",
            "time_usec": 1503198964472714
},
        {
            "page_transition": "RELOAD",
            "title": "NatoMounts.com - Shopping Cart",
            "url": "https://www.natomounts.com/cart.php?suggest\u003d9c0d2a2b-e9c1-4fed-b8f9-a33b001c342e",
            "client_id": "zETy79fIcvgzD/aqN0WdoA\u003d\u003d",
            "time_usec": 1503198963820714
},
        {
            "favicon_url": "https://www.amazon.com/favicon.ico",
            "page_transition": "RELOAD",
            "title": "Amazon.com: Online Shopping for Electronics, Apparel, Computers, Books, DVDs \u0026 more",
            "url": "https://www.amazon.com/?ie\u003dUTF8\u0026%2AVersion%2A\u003d1\u0026%2Aentries%2A\u003d0\u0026",
            "client_id": "zETy79fIcvgzD/aqN0WdoA\u003d\u003d",
            "time_usec": 1503198963744714
},
        {
            "page_transition": "LINK",
            "title": "History",
            "url": "chrome://history/syncedTabs",
            "client_id": "zETy79fIcvgzD/aqN0WdoA\u003d\u003d",
            "time_usec": 1503198952880714
},
        {
            "page_transition": "AUTO_BOOKMARK",
            "title": "History",
            "url": "chrome://history/",
            "client_id": "zETy79fIcvgzD/aqN0WdoA\u003d\u003d",
            "time_usec": 1503198816048060
},
        {
            "favicon_url": "https://www.google.com/favicon.ico",
            "page_transition": "AUTO_TOPLEVEL",
            "title": "New Tab",
            "url": "chrome://newtab/",
            "client_id": "zETy79fIcvgzD/aqN0WdoA\u003d\u003d",
            "time_usec": 1503198777463060
},
        {
            "page_transition": "RELOAD",
            "title": "Settings - Google+",
            "url": "https://plus.google.com/settings",
            "client_id": "8mPDqvvF7rd+Y8Em8V5F7w\u003d\u003d",
            "time_usec": 1503180949203081
},
        {
            "page_transition": "RELOAD",
            "title": "Google - My Activity",
            "url": "https://myactivity.google.com/item?utm_source\u003dmy-account\u0026utm_medium\u003d\u0026utm_campaign\u003d",
            "client_id": "8mPDqvvF7rd+Y8Em8V5F7w\u003d\u003d",
            "time_usec": 1503180947427971
},
        {
            "page_transition": "RELOAD",
            "title": "View \u0026 control activity on your account - Google Account Help",
            "url": "https://support.google.com/accounts/answer/7028918",
            "client_id": "8mPDqvvF7rd+Y8Em8V5F7w\u003d\u003d",
            "time_usec": 1503180944319588
},
        {
            "page_transition": "RELOAD",
            "title": "Personal info \u0026 privacy",
            "url": "https://myaccount.google.com/privacy?hl\u003den-US\u0026utm_source\u003dudc\u0026utm_medium\u003dudc\u0026pli\u003d1#activity",
            "client_id": "8mPDqvvF7rd+Y8Em8V5F7w\u003d\u003d",
            "time_usec": 1503180938247325
},
        {
            "page_transition": "RELOAD",
            "title": "Amazon Prime Survey",
            "url": "http://siteconsumer.com/?1444e9040aa17b6ba1f8bdc5c25ad11f",
            "client_id": "8mPDqvvF7rd+Y8Em8V5F7w\u003d\u003d",
            "time_usec": 1503180935657382
},
        {
            "page_transition": "RELOAD",
            "title": "Zyacin",
            "url": "https://specialoffer.healthprimeperformance.com/v1/m/thankyou.php?step1_orderId\u003d8286780\u0026AFID\u003d\u0026AFFID\u003d200431\u0026SID\u003d\u0026SOID\u003d\u0026click_id\u003d\u0026C1\u003d14238439\u0026C2\u003d328969117\u0026C3\u003d",
            "client_id": "8mPDqvvF7rd+Y8Em8V5F7w\u003d\u003d",
            "time_usec": 1503180934034662
},
        {
            "page_transition": "RELOAD",
            "title": "Google Membership Rewards",
            "url": "https://google.membership-onegift.com/eng_special_freegift5/indexcct_iphone7_usd.html?brand\u003dMotorola\u0026model\u003dMoto%20Z%20Droid\u0026countryname\u003dUnited%20States\u0026city\u003dRowlett\u0026isp\u003dVerizon%20Wireless\u0026ip\u003d70.196.3.10\u0026voluumdata\u003dBASE64dmlkLi4wMDAwMDAwOC0yY2QzLTQyMTItODAwMC0wMDAwMDAwMDAwMDBfX3ZwaWQuLmI5YmE2ODAwLTg0NzktMTFlNy04N2Q5LTQzZDY4YjY5ZDhjZV9fY2FpZC4uNmExYzYwYjktYWEwYi00YTgyLWIyN2MtZWY0YmNmMGI2ZjlkX19ydC4uUl9fbGlkLi4yMzFiYmE1OS0zYjRiLTQ0ODgtYmNiZS1jM2YzMDFlYjRkNjBfX29pZDEuLjhlOTk0ZDk4LWY3YWQtNDUxYS04MzE0LTNjNWQ1ZTUwMTZmOV9fdmFyMS4uODUwMjgyNTE3X192YXIyLi40MDA0MDI5MTY2MV9fdmFyMy4uMTk5NjIwNDQ4MjI1X192YXI1Li5tb2JpbGVhcHA6OjItY29tXC5cY2FtZWxcLlxjb3JwXC5cY29weXRvb2xzX192YXI2Li4vb25saW5lIGNvbW11bml0aWVzX192YXI4Li4xMDI2MzM5X192YXI5Li5tb3Rvcm9sYSt4dDE2NTBfX3ZhcjEwLi5DTWVRejRLUjR0VUNGWnk2d0FvZDBvZ0FCUV9fcmQuLl9fYWlkLi5fX2FiLi5fX3NpZC4uX19jcmkuLl9fcHViLi5fX2RpZC4uX19kaXQuLl9fcGlkLi5fX3BlaWQuLl9faXQuLl9fdnQuLjE1MDMxMDU2ODUxMDQ\u0026campaignid\u003d850282517\u0026adgroupid\u003d40040291661\u0026creative\u003d199620448225\u0026keyword\u003d\u0026placement\u003dmobileapp::2-com.camel.corp.copytools\u0026target\u003d/online%20communities\u0026loc_interest_ms\u003d\u0026loc_physical_ms\u003d1026339\u0026devicemodel\u003dmotorola+xt1650\u0026gclid\u003dCMeQz4KR4tUCFZy6wAod0ogABQ#b",
            "client_id": "8mPDqvvF7rd+Y8Em8V5F7w\u003d\u003d",
            "time_usec": 1503180931401100
},
        {
            "page_transition": "LINK",
            "title": "Find My Device",
            "url": "https://accounts.google.com/signin/v2/sl/pwd?service\u003dandroidconsole\u0026passive\u003d1209600\u0026continue\u003dhttps%3A%2F%2Fwww.google.com%2Fandroid%2Ffind%3Fhl%3Den\u0026followup\u003dhttps%3A%2F%2Fwww.google.com%2Fandroid%2Ffind%3Fhl%3Den\u0026ltmpl\u003dfindmydevice\u0026hl\u003den\u0026rart\u003dANgoxcemD8l7JtLCIh6lOw2DzR9QlOg-fDKgzvyYiw2V89PDN_Tv4YKfQX_FjZ7PBMUvQ7ByDDqEeESwoymNJ7l5c4M4udDTAA\u0026authuser\u003d0\u0026flowName\u003dGlifWebSignIn\u0026flowEntry\u003dServiceLogin",
            "client_id": "8mPDqvvF7rd+Y8Em8V5F7w\u003d\u003d",
            "time_usec": 1503180856803702
},
        {
            "page_transition": "LINK",
            "title": "Find My Device",
            "url": "https://www.google.com/android/find?hl\u003den\u0026rapt\u003dAEjHL4NLoN-ryO_nPc-r0mg2HLIVNEsMV9sGVS3gdXBbnwqWSgEyM6rObsO62P_ViLg4emQfopvF36Pe-GFw5nEl1cdQHIqFLg",
            "client_id": "8mPDqvvF7rd+Y8Em8V5F7w\u003d\u003d",
            "time_usec": 1503180741569494
},
        {
            "page_transition": "LINK",
            "title": "Find My Device",
            "url": "https://accounts.google.com/signin/v2/sl/pwd?service\u003dandroidconsole\u0026passive\u003d1209600\u0026continue\u003dhttps%3A%2F%2Fwww.google.com%2Fandroid%2Ffind%3Fhl%3Den\u0026followup\u003dhttps%3A%2F%2Fwww.google.com%2Fandroid%2Ffind%3Fhl%3Den\u0026ltmpl\u003dfindmydevice\u0026hl\u003den\u0026rart\u003dANgoxcemD8l7JtLCIh6lOw2DzR9QlOg-fDKgzvyYiw2V89PDN_Tv4YKfQX_FjZ7PBMUvQ7ByDDqEeESwoymNJ7l5c4M4udDTAA\u0026authuser\u003d0\u0026flowName\u003dGlifWebSignIn\u0026flowEntry\u003dServiceLogin",
            "client_id": "8mPDqvvF7rd+Y8Em8V5F7w\u003d\u003d",
            "time_usec": 1503180738439376
},
        {
            "page_transition": "LINK",
            "title": "Dashboard - Account Settings",
            "url": "https://myaccount.google.com/dashboard?hl\u003den\u0026dnm\u003dtrue\u0026utm_source\u003dAndroid\u0026utm_campaign\u003dMobileSettings\u0026pli\u003d1",
            "client_id": "8mPDqvvF7rd+Y8Em8V5F7w\u003d\u003d",
            "time_usec": 1503180291870516
},
        {
            "page_transition": "LINK",
            "title": "Sign in - Google Accounts",
            "url": "https://accounts.google.com/signin/v2/sl/pwd?service\u003daccountsettings\u0026osid\u003d1\u0026continue\u003dhttps%3A%2F%2Fmyaccount.google.com%2Fdashboard%3Fhl%3Den%26dnm%3Dtrue%26utm_source%3DAndroid%26utm_campaign%3DMobileSettings%26pli%3D1\u0026followup\u003dhttps%3A%2F%2Fmyaccount.google.com%2Fdashboard%3Fhl%3Den%26dnm%3Dtrue%26utm_source%3DAndroid%26utm_campaign%3DMobileSettings%26pli%3D1\u0026hl\u003den\u0026emr\u003d1\u0026mrp\u003dprivacy\u0026passive\u003d-1\u0026passwdsession\u003dtrue\u0026authuser\u003d0\u0026flowName\u003dGlifWebSignIn\u0026flowEntry\u003dServiceLogin",
            "client_id": "8mPDqvvF7rd+Y8Em8V5F7w\u003d\u003d",
            "time_usec": 1503180283455702
},
        {
            "page_transition": "LINK",
            "title": "Sync and view tabs and history across devices - Android - Google Chrome Help",
            "url": "https://support.google.com/chrome/answer/2591582?hl\u003den\u0026ref_topic\u003d7439844\u0026co\u003dGENIE.Platform%3DAndroid\u0026oco\u003d0",
            "client_id": "8mPDqvvF7rd+Y8Em8V5F7w\u003d\u003d",
            "time_usec": 1503180273841457
},
        {
            "page_transition": "LINK",
            "title": "Browse in private - Android - Google Chrome Help",
            "url": "https://support.google.com/chrome/answer/95464",
            "client_id": "8mPDqvvF7rd+Y8Em8V5F7w\u003d\u003d",
            "time_usec": 1503180255254707
},
        {
            "page_transition": "LINK",
            "title": "Sync and view tabs and history across devices - Android - Google Chrome Help",
            "url": "https://support.google.com/chrome/answer/2591582?hl\u003den\u0026ref_topic\u003d7439844\u0026co\u003dGENIE.Platform%3DAndroid\u0026oco\u003d0",
            "client_id": "8mPDqvvF7rd+Y8Em8V5F7w\u003d\u003d",
            "time_usec": 1503180235091674
},
        {
            "page_transition": "LINK",
            "title": "Sync and view tabs and history across devices - Computer - Google Chrome Help",
            "url": "https://support.google.com/chrome/answer/2591582?hl\u003den\u0026ref_topic\u003d7439844\u0026co\u003dGENIE.Platform%3DDesktop\u0026oco\u003d0",
            "client_id": "8mPDqvvF7rd+Y8Em8V5F7w\u003d\u003d",
            "time_usec": 1503180231798410
},
        {
            "page_transition": "LINK",
            "title": "Sync and view tabs and history across devices - Android - Google Chrome Help",
            "url": "https://support.google.com/chrome/answer/2591582?hl\u003den\u0026ref_topic\u003d7439844",
            "client_id": "8mPDqvvF7rd+Y8Em8V5F7w\u003d\u003d",
            "time_usec": 1503180229060969
},
        {
            "page_transition": "LINK",
            "title": "Sync Chrome data across devices - Android - Google Chrome Help",
            "url": "https://support.google.com/chrome/answer/165139",
            "client_id": "8mPDqvvF7rd+Y8Em8V5F7w\u003d\u003d",
            "time_usec": 1503180106275592
},
        {
            "page_transition": "LINK",
            "title": "Sync and view tabs and history across devices - Android - Google Chrome Help",
            "url": "https://support.google.com/chrome/answer/2591582?visit_id\u003d1-636384558679662234-1198212787\u0026p\u003dsync_history\u0026rd\u003d1",
            "client_id": "8mPDqvvF7rd+Y8Em8V5F7w\u003d\u003d",
            "time_usec": 1503180068321906
},
        {
            "page_transition": "LINK",
            "title": "Google - My Activity",
            "url": "https://myactivity.google.com/myactivity?hl\u003den\u0026utm_source\u003dmy-account\u0026utm_medium\u003de\u0026embedded\u003d1",
            "client_id": "8mPDqvvF7rd+Y8Em8V5F7w\u003d\u003d",
            "time_usec": 1503180028872188
},
        {
            "page_transition": "LINK",
            "title": "Google - My Activity",
            "url": "https://myactivity.google.com/more-activity?hl\u003den\u0026utm_source\u003dmy-account\u0026utm_medium\u003de\u0026embedded\u003d1",
            "client_id": "8mPDqvvF7rd+Y8Em8V5F7w\u003d\u003d",
            "time_usec": 1503180001136158
},
        {
            "page_transition": "LINK",
            "title": "Google - My Activity",
            "url": "https://myactivity.google.com/myactivity?embedded\u003d1\u0026hl\u003den\u0026utm_source\u003dmy-account\u0026utm_medium\u003de\u0026utm_campaign\u003d\u0026pli\u003d1",
            "client_id": "8mPDqvvF7rd+Y8Em8V5F7w\u003d\u003d",
            "time_usec": 1503179985468040
},
        {
            "page_transition": "LINK",
            "title": "Shared endorsements",
            "url": "https://myaccount.google.com/shared-endorsements?hl\u003den\u0026dnm\u003dtrue\u0026utm_source\u003dAndroid\u0026utm_campaign\u003dMobileSettings\u0026pli\u003d1",
            "client_id": "8mPDqvvF7rd+Y8Em8V5F7w\u003d\u003d",
            "time_usec": 1503179962215761
},
        {
            "page_transition": "LINK",
            "title": "",
            "url": "https://notifications.google.com/widget/mobile",
            "client_id": "8mPDqvvF7rd+Y8Em8V5F7w\u003d\u003d",
            "time_usec": 1503179939785463
},
        {
            "page_transition": "FORM_SUBMIT",
            "title": "Google",
            "url": "https://www.google.com/",
            "client_id": "8mPDqvvF7rd+Y8Em8V5F7w\u003d\u003d",
            "time_usec": 1503179934776349
},
        {
            "page_transition": "LINK",
            "title": "Settings",
            "url": "https://www.google.com/preferences?hl\u003den\u0026pli\u003d1",
            "client_id": "8mPDqvvF7rd+Y8Em8V5F7w\u003d\u003d",
            "time_usec": 1503179883893149
},
        {
            "page_transition": "LINK",
            "title": "System MSG",
            "url": "https://mp-us-openapi.auto.mydlink.com/action/account_activate?c\u003djAhKa4eUooebSgNR%2FtJ4xATGsco%2BsFhwb1zMxi980L1rC%2Fqg9TlCol%2BI804gh5WM6UuSk8uJM3mksy2lsr05CusXb7xFZMUJuMSIEwXLPMcZyihcsyXvLzG6KVZA3ZooNt8bXWTPfUTO0g%2FSOOTnpy4D7QR8J4MyUc2FERpDhsGP4S05bqJ1K39Q2wedz0RkE%3D\u0026r\u003d5998748615123\u0026lang\u003den\u0026dtype\u003ddefault",
            "client_id": "8mPDqvvF7rd+Y8Em8V5F7w\u003d\u003d",
            "time_usec": 1503163572902858
},
        {
            "page_transition": "LINK",
            "title": "Google Membership Rewards",
            "url": "https://google.membership-onegift.com/eng_special_freegift5/indexcct_iphone7_usd.html?brand\u003dMotorola\u0026model\u003dMoto%20Z%20Droid\u0026countryname\u003dUnited%20States\u0026city\u003dRowlett\u0026isp\u003dVerizon%20Wireless\u0026ip\u003d70.196.3.10\u0026voluumdata\u003dBASE64dmlkLi4wMDAwMDAwOC0yY2QzLTQyMTItODAwMC0wMDAwMDAwMDAwMDBfX3ZwaWQuLmI5YmE2ODAwLTg0NzktMTFlNy04N2Q5LTQzZDY4YjY5ZDhjZV9fY2FpZC4uNmExYzYwYjktYWEwYi00YTgyLWIyN2MtZWY0YmNmMGI2ZjlkX19ydC4uUl9fbGlkLi4yMzFiYmE1OS0zYjRiLTQ0ODgtYmNiZS1jM2YzMDFlYjRkNjBfX29pZDEuLjhlOTk0ZDk4LWY3YWQtNDUxYS04MzE0LTNjNWQ1ZTUwMTZmOV9fdmFyMS4uODUwMjgyNTE3X192YXIyLi40MDA0MDI5MTY2MV9fdmFyMy4uMTk5NjIwNDQ4MjI1X192YXI1Li5tb2JpbGVhcHA6OjItY29tXC5cY2FtZWxcLlxjb3JwXC5cY29weXRvb2xzX192YXI2Li4vb25saW5lIGNvbW11bml0aWVzX192YXI4Li4xMDI2MzM5X192YXI5Li5tb3Rvcm9sYSt4dDE2NTBfX3ZhcjEwLi5DTWVRejRLUjR0VUNGWnk2d0FvZDBvZ0FCUV9fcmQuLl9fYWlkLi5fX2FiLi5fX3NpZC4uX19jcmkuLl9fcHViLi5fX2RpZC4uX19kaXQuLl9fcGlkLi5fX3BlaWQuLl9faXQuLl9fdnQuLjE1MDMxMDU2ODUxMDQ\u0026campaignid\u003d850282517\u0026adgroupid\u003d40040291661\u0026creative\u003d199620448225\u0026keyword\u003d\u0026placement\u003dmobileapp::2-com.camel.corp.copytools\u0026target\u003d/online%20communities\u0026loc_interest_ms\u003d\u0026loc_physical_ms\u003d1026339\u0026devicemodel\u003dmotorola+xt1650\u0026gclid\u003dCMeQz4KR4tUCFZy6wAod0ogABQ",
            "client_id": "8mPDqvvF7rd+Y8Em8V5F7w\u003d\u003d",
            "time_usec": 1503105693267923
},
        {
            "page_transition": "LINK",
            "title": "",
            "url": "http://traffix.traffixfox.ch/jump/?jl\u003d13354319",
            "client_id": "8mPDqvvF7rd+Y8Em8V5F7w\u003d\u003d",
            "time_usec": 1503105693141248
},
        {
            "page_transition": "LINK",
            "title": "Yamato Tyler",
            "url": "https://m.facebook.com/yamatotyler/",
            "client_id": "8mPDqvvF7rd+Y8Em8V5F7w\u003d\u003d",
            "time_usec": 1503101077259106
},
        {
            "page_transition": "LINK",
            "title": "Yamato Japanese Hibachi Grill | Tyler, TX | Sushi",
            "url": "https://www.yamatotyler.com/",
            "client_id": "8mPDqvvF7rd+Y8Em8V5F7w\u003d\u003d",
            "time_usec": 1503100674137334
},
        {
            "page_transition": "FORM_SUBMIT",
            "title": "NatoMounts.com - Shopping Cart",
            "url": "https://www.natomounts.com/cart.php?suggest\u003d9c0d2a2b-e9c1-4fed-b8f9-a33b001c342e",
            "client_id": "8mPDqvvF7rd+Y8Em8V5F7w\u003d\u003d",
            "time_usec": 1503097578384711
},
        {
            "page_transition": "LINK",
            "title": "NatoMounts.com - Checkout",
            "url": "https://www.natomounts.com/checkout/order-confirmation",
            "client_id": "8mPDqvvF7rd+Y8Em8V5F7w\u003d\u003d",
            "time_usec": 1503097537145970
},
        {
            "page_transition": "LINK",
            "title": "NatoMounts.com - Checkout",
            "url": "https://www.natomounts.com/checkout",
            "client_id": "8mPDqvvF7rd+Y8Em8V5F7w\u003d\u003d",
            "time_usec": 1503097436465583
},
        {
            "page_transition": "FORM_SUBMIT",
            "title": "NatoMounts.com - Shopping Cart",
            "url": "https://www.natomounts.com/cart.php?suggest\u003d9c0d2a2b-e9c1-4fed-b8f9-a33b001c342e",
            "client_id": "8mPDqvvF7rd+Y8Em8V5F7w\u003d\u003d",
            "time_usec": 1503097418361546
},
        {
            "page_transition": "LINK",
            "title": "5 NATO MOUNTS | Buy 4 Get 1 Free! - NatoMounts.com",
            "url": "https://www.natomounts.com/5-nato-mounts-buy-4-get-1-free/?utm_content\u003dadvertisemint_google\u0026gclid\u003dEAIaIQobChMI-KTFmPHh1QIVmbrACh1Y-gG4EAQYASABEgKiX_D_BwE",
            "client_id": "8mPDqvvF7rd+Y8Em8V5F7w\u003d\u003d",
            "time_usec": 1503097353100115
},
        {
            "page_transition": "FORM_SUBMIT",
            "title": "Amazon.com: Online Shopping for Electronics, Apparel, Computers, Books, DVDs \u0026 more",
            "url": "https://www.amazon.com/?ie\u003dUTF8\u0026%2AVersion%2A\u003d1\u0026%2Aentries%2A\u003d0\u0026",
            "client_id": "8mPDqvvF7rd+Y8Em8V5F7w\u003d\u003d",
            "time_usec": 1503094634159330
},
        {
            "page_transition": "FORM_SUBMIT",
            "title": "Please confirm your identity",
            "url": "https://www.amazon.com/ap/cvf/request?arb\u003d00e633ac-ddd5-484f-bc1b-58ce4d305574",
            "client_id": "8mPDqvvF7rd+Y8Em8V5F7w\u003d\u003d",
            "time_usec": 1503094597074825
},
        {
            "page_transition": "FORM_SUBMIT",
            "title": "Amazon Sign In Options",
            "url": "https://www.amazon.com/ap/forgotpassword/options?ie\u003dUTF8\u0026openid.pape.max_auth_age\u003d0\u0026openid.identity\u003dhttp%3A%2F%2Fspecs.openid.net%2Fauth%2F2.0%2Fidentifier_select\u0026paramJwt\u003deyJ6aXAiOiJERUYiLCJlbmMiOiJBMjU2R0NNIiwiYWxnIjoiQTI1NktXIn0.lVn8sjDat8RK0hB41BVVDjaQuY19PhtLWsfMazrZdphnm76QyGeppQ.elPqF0X5PmGIHjIU.ZJuUtGOaLQfJQa_DaFjj55UtCUWIHQdhddOTC6NYqW5kKdjl6GGIWSmGtk63AglYGDyhLRDhSexN-aBCWXTl17MLBzuDKgXbfTQdFD30IpuBy8nqdrKnrFvD1jcEDlcQSH204pV_swe7OJTdHL_cNVISPUTn679kqlewfZvcY6tSxiNF-JzmAzsPYI0VNB30u--6-lFI8ez7Yno1xwlwCpwdoHSyFezIj0Mv607vSHqgMGCZXgVIXZYxu2dD0iKC8BN1AfpqfmSRYxukdao126SeRKTlYbaMRjd4wxWTCFWUHtoFLf774g.ZP6WxeXFZSFRa4IjTaIkyw\u0026pageId\u003danywhere_us\u0026openid.return_to\u003dhttps%3A%2F%2Fwww.amazon.com%2F%3Fie%3DUTF8%26%252AVersion%252A%3D1%26%252Aentries%252A%3D0\u0026prevRID\u003dKN3FEVEV2Z43886HGA1R\u0026openid.assoc_handle\u003danywhere_v2_us\u0026openid.mode\u003dcheckid_setup\u0026openid.ns.pape\u003dhttp%3A%2F%2Fspecs.openid.net%2Fextensions%2Fpape%2F1.0\u0026prepopulatedLoginId\u003deyJjaXBoZXIiOiI3TmNzTTVCRzJVdnFYRWFyaGpzWDJSV2FuV1l5MlRiSXpSSERkT3dJcUpFPSIsInZlcnNpb24iOjEsIklWIjoiZ3RhdWZHN1p0bVVGNzh6MHpVTEpoUT09In0%3D\u0026failedSignInCount\u003d1\u0026ref_\u003dgwm_sic_sib\u0026openid.claimed_id\u003dhttp%3A%2F%2Fspecs.openid.net%2Fauth%2F2.0%2Fidentifier_select\u0026openid.ns\u003dhttp%3A%2F%2Fspecs.openid.net%2Fauth%2F2.0",
            "client_id": "8mPDqvvF7rd+Y8Em8V5F7w\u003d\u003d",
            "time_usec": 1503094587213932
},
        {
            "page_transition": "LINK",
            "title": "Amazon Password Assistance",
            "url": "https://www.amazon.com/ap/forgotpassword?openid.pape.max_auth_age\u003d0\u0026openid.identity\u003dhttp%3A%2F%2Fspecs.openid.net%2Fauth%2F2.0%2Fidentifier_select\u0026pageId\u003danywhere_us\u0026openid.return_to\u003dhttps%3A%2F%2Fwww.amazon.com%2F%3Fie%3DUTF8%26%252AVersion%252A%3D1%26%252Aentries%252A%3D0\u0026prevRID\u003dVTRZV64EH6T70NF9TYB1\u0026openid.assoc_handle\u003danywhere_v2_us\u0026openid.mode\u003dcheckid_setup\u0026openid.ns.pape\u003dhttp%3A%2F%2Fspecs.openid.net%2Fextensions%2Fpape%2F1.0\u0026prepopulatedLoginId\u003deyJjaXBoZXIiOiI3TmNzTTVCRzJVdnFYRWFyaGpzWDJSV2FuV1l5MlRiSXpSSERkT3dJcUpFPSIsInZlcnNpb24iOjEsIklWIjoiZ3RhdWZHN1p0bVVGNzh6MHpVTEpoUT09In0%3D\u0026failedSignInCount\u003d1\u0026ref_\u003dgwm_sic_sib\u0026openid.claimed_id\u003dhttp%3A%2F%2Fspecs.openid.net%2Fauth%2F2.0%2Fidentifier_select\u0026openid.ns\u003dhttp%3A%2F%2Fspecs.openid.net%2Fauth%2F2.0",
            "client_id": "8mPDqvvF7rd+Y8Em8V5F7w\u003d\u003d",
            "time_usec": 1503094581175901
},
        {
            "page_transition": "FORM_SUBMIT",
            "title": "Amazon Sign In",
            "url": "https://www.amazon.com/ap/signin",
            "client_id": "8mPDqvvF7rd+Y8Em8V5F7w\u003d\u003d",
            "time_usec": 1503094577170719
},
        {
            "page_transition": "LINK",
            "title": "Amazon Sign In",
            "url": "https://www.amazon.com/ap/signin?_encoding\u003dUTF8\u0026openid.assoc_handle\u003dusflex\u0026openid.claimed_id\u003dhttp%3A%2F%2Fspecs.openid.net%2Fauth%2F2.0%2Fidentifier_select\u0026openid.identity\u003dhttp%3A%2F%2Fspecs.openid.net%2Fauth%2F2.0%2Fidentifier_select\u0026openid.mode\u003dcheckid_setup\u0026openid.ns\u003dhttp%3A%2F%2Fspecs.openid.net%2Fauth%2F2.0\u0026openid.ns.pape\u003dhttp%3A%2F%2Fspecs.openid.net%2Fextensions%2Fpape%2F1.0\u0026openid.pape.max_auth_age\u003d0\u0026openid.return_to\u003dhttps%3A%2F%2Fwww.amazon.com%2F%3Fie%3DUTF8%26%252AVersion%252A%3D1%26%252Aentries%252A%3D0\u0026pf_rd_p\u003df9c26e29-4baf-420a-9b4b-805465a6bd69\u0026pf_rd_s\u003dgrid-top-3\u0026pf_rd_t\u003dGateway\u0026pf_rd_i\u003dmobile\u0026pf_rd_m\u003dATVPDKIKX0DER\u0026pf_rd_r\u003d06E7MY9XME6HSFWMEDYY\u0026pf_rd_r\u003d06E7MY9XME6HSFWMEDYY\u0026pf_rd_p\u003df9c26e29-4baf-420a-9b4b-805465a6bd69\u0026ref_\u003dgwm_sic_sib",
            "client_id": "8mPDqvvF7rd+Y8Em8V5F7w\u003d\u003d",
            "time_usec": 1503094555555236
},
        {
            "page_transition": "LINK",
            "title": "Amazon.com: Online Shopping for Electronics, Apparel, Computers, Books, DVDs \u0026 more",
            "url": "https://www.amazon.com/",
            "client_id": "8mPDqvvF7rd+Y8Em8V5F7w\u003d\u003d",
            "time_usec": 1503094555285653
},
        {
            "page_transition": "LINK",
            "title": "Amazon Prime Survey",
            "url": "http://tradingretail.com/?1444e9040aa17b6ba1f8bdc5c25ad11f",
            "client_id": "8mPDqvvF7rd+Y8Em8V5F7w\u003d\u003d",
            "time_usec": 1503094311416245
},
        {
            "page_transition": "LINK",
            "title": "",
            "url": "http://www.rewardsconnector.com/?\u0026__du__\u003daHR0cDovL3JldGFpbHlvZ2EuY29tL2luZGV4LnBocD91c2VtcDM9ZmFsc2UmYnJhbmQ9YnJhbmQmdDIwMmt3PUxFQURQUklNRX4yMkpUJmMxPWMxJmMyPWMyJmMzPWMzJnM9MiZpPTYwNw\u003d\u003d\u0026__cm__\u003dConfirmed:%20$50%20Amazon%20Prime%20Reward%20Awaiting!",
            "client_id": "8mPDqvvF7rd+Y8Em8V5F7w\u003d\u003d",
            "time_usec": 1503094300313408
},
        {
            "page_transition": "LINK",
            "title": "",
            "url": "content://com.android.email.attachmentprovider/1/3/RAW",
            "client_id": "8mPDqvvF7rd+Y8Em8V5F7w\u003d\u003d",
            "time_usec": 1503094283095022
},
        {
            "page_transition": "RELOAD",
            "title": "Zyacin",
            "url": "https://specialoffer.healthprimeperformance.com/v1/m/thankyou.php?step1_orderId\u003d8286780\u0026AFID\u003d\u0026AFFID\u003d200431\u0026SID\u003d\u0026SOID\u003d\u0026click_id\u003d\u0026C1\u003d14238439\u0026C2\u003d328969117\u0026C3\u003d",
            "client_id": "8mPDqvvF7rd+Y8Em8V5F7w\u003d\u003d",
            "time_usec": 1503094282905289
},
        {
            "page_transition": "LINK",
            "title": "Zyacin",
            "url": "https://specialoffer.healthprimeperformance.com/v1/m/thankyou.php?step1_orderId\u003d8286780\u0026AFID\u003d\u0026AFFID\u003d200431\u0026SID\u003d\u0026SOID\u003d\u0026click_id\u003d\u0026C1\u003d14238439\u0026C2\u003d328969117\u0026C3\u003d",
            "client_id": "8mPDqvvF7rd+Y8Em8V5F7w\u003d\u003d",
            "time_usec": 1503078541372180
},
        {
            "page_transition": "LINK",
            "title": "Zyacin",
            "url": "https://specialoffer.healthprimeperformance.com/v1/m/upsell2.php?step1_orderId\u003d8286780\u0026AFID\u003d\u0026AFFID\u003d200431\u0026SID\u003d\u0026SOID\u003d\u0026click_id\u003d\u0026C1\u003d14238439\u0026C2\u003d328969117\u0026C3\u003d",
            "client_id": "8mPDqvvF7rd+Y8Em8V5F7w\u003d\u003d",
            "time_usec": 1503078541106178
},
        {
            "page_transition": "LINK",
            "title": "Zyacin",
            "url": "https://specialoffer.healthprimeperformance.com/v1/m/upsell.php?step1_orderId\u003d8286780\u0026AFID\u003d\u0026AFFID\u003d200431\u0026SID\u003d\u0026SOID\u003d\u0026click_id\u003d\u0026C1\u003d14238439\u0026C2\u003d328969117\u0026C3\u003d",
            "client_id": "8mPDqvvF7rd+Y8Em8V5F7w\u003d\u003d",
            "time_usec": 1503078502952183
},
        {
            "page_transition": "FORM_SUBMIT",
            "title": "Zyacin™",
            "url": "https://specialoffer.healthprimeperformance.com/v1/m/checkout.php?prospectId\u003d3673741\u0026AFID\u003d\u0026AFFID\u003d200431\u0026SID\u003d\u0026TID\u003d\u0026AID\u003d\u0026click_id\u003d\u0026C1\u003d14238439\u0026C2\u003d328969117\u0026C3\u003d\u0026downsell_activated\u003d",
            "client_id": "8mPDqvvF7rd+Y8Em8V5F7w\u003d\u003d",
            "time_usec": 1503078451514615
},
        {
            "page_transition": "FORM_SUBMIT",
            "title": "Zyacin™",
            "url": "https://specialoffer.healthprimeperformance.com/v1/m/address.php?AFFID\u003d200431\u0026C1\u003d14238439\u0026C2\u003d328969117\u0026fields_fname\u003dBarron\u0026fields_lname\u003dDuplechein\u0026fields_email\u003dbkduplechein%40gmail.com\u0026whyDoYouWantZyalix\u003dHarder+Erections\u0026x\u003d444\u0026y\u003d77",
            "client_id": "8mPDqvvF7rd+Y8Em8V5F7w\u003d\u003d",
            "time_usec": 1503078441094338
},
        {
            "page_transition": "LINK",
            "title": "Zyacin™",
            "url": "http://specialoffer.healthprimeperformance.com/v1/m/qualify.php?AFFID\u003d200431\u0026C1\u003d14238439\u0026C2\u003d328969117",
            "client_id": "8mPDqvvF7rd+Y8Em8V5F7w\u003d\u003d",
            "time_usec": 1503078417148801
},
        {
            "page_transition": "LINK",
            "title": "Zyacin™",
            "url": "http://specialoffer.healthprimeperformance.com/v1/m/index.php?AFFID\u003d200431\u0026C1\u003d14238439\u0026C2\u003d328969117",
            "client_id": "8mPDqvvF7rd+Y8Em8V5F7w\u003d\u003d",
            "time_usec": 1503078392154494
},
        {
            "page_transition": "LINK",
            "title": "Amazon Prime Survey",
            "url": "http://siteconsumer.com/?1444e9040aa17b6ba1f8bdc5c25ad11f",
            "client_id": "8mPDqvvF7rd+Y8Em8V5F7w\u003d\u003d",
            "time_usec": 1503078184161892
},
        {
            "page_transition": "LINK",
            "title": "",
            "url": "http://www.rewardsconnector.com/?\u0026__du__\u003daHR0cDovL3JldGFpbHlvZ2EuY29tL2luZGV4LnBocD91c2VtcDM9ZmFsc2UmYnJhbmQ9YnJhbmQmdDIwMmt3PUxFQURQUklNRX4yMkpUJmMxPWMxJmMyPWMyJmMzPWMzJnM9MiZpPTYwNw\u0026__cm__\u003dConfirmed:%20$50%20Amazon%20Prime%20Reward%20Awaiting!\u0026email\u003dbduplechein%40yahoo.com",
            "client_id": "8mPDqvvF7rd+Y8Em8V5F7w\u003d\u003d",
            "time_usec": 1503078169950079
},
        {
            "page_transition": "RELOAD",
            "title": "Personal info \u0026 privacy",
            "url": "https://myaccount.google.com/privacy?hl\u003den-US\u0026utm_source\u003dudc\u0026utm_medium\u003dudc\u0026pli\u003d1#activity",
            "client_id": "8mPDqvvF7rd+Y8Em8V5F7w\u003d\u003d",
            "time_usec": 1503078116978436
},
        {
            "page_transition": "RELOAD",
            "title": "Personal info \u0026 privacy",
            "url": "https://myaccount.google.com/privacy?hl\u003den-US\u0026utm_source\u003dudc\u0026utm_medium\u003dudc\u0026pli\u003d1#activity",
            "client_id": "8mPDqvvF7rd+Y8Em8V5F7w\u003d\u003d",
            "time_usec": 1503078115282795
},
        {
            "page_transition": "LINK",
            "title": "",
            "url": "content://com.android.email.attachmentprovider/1/3/RAW",
            "client_id": "8mPDqvvF7rd+Y8Em8V5F7w\u003d\u003d",
            "time_usec": 1503078095017558
},
        {
            "page_transition": "LINK",
            "title": "Mineola Community Bank",
            "url": "https://secure.mineolacb.com/Accounts/Index",
            "client_id": "8mPDqvvF7rd+Y8Em8V5F7w\u003d\u003d",
            "time_usec": 1503077987616795
},
        {
            "page_transition": "LINK",
            "title": "Mineola Community Bank",
            "url": "https://secure.mineolacb.com/AccountHistory#Deposit/bsURgpPjy14uZn2LpKkmVw2",
            "client_id": "8mPDqvvF7rd+Y8Em8V5F7w\u003d\u003d",
            "time_usec": 1503077847703701
},
        {
            "page_transition": "LINK",
            "title": "Mineola Community Bank",
            "url": "https://secure.mineolacb.com/Accounts/Index",
            "client_id": "8mPDqvvF7rd+Y8Em8V5F7w\u003d\u003d",
            "time_usec": 1503077832961860
},
        {
            "page_transition": "LINK",
            "title": "Mineola Community Bank",
            "url": "https://secure.mineolacb.com/Announcement?HostIndex\u003d10300\u0026ReturnUrl\u003d%2FAccounts",
            "client_id": "8mPDqvvF7rd+Y8Em8V5F7w\u003d\u003d",
            "time_usec": 1503077818803827
},
        {
            "page_transition": "LINK",
            "title": "Mineola Community Bank",
            "url": "https://secure.mineolacb.com/Profile?ReturnUrl\u003d%2FAccounts\u0026Feature\u003dpassword",
            "client_id": "8mPDqvvF7rd+Y8Em8V5F7w\u003d\u003d",
            "time_usec": 1503077687459259
},
        {
            "page_transition": "LINK",
            "title": "Shop Severe Weather 2-Pack Earthen Red Louvered Vinyl Exterior Shutters (Common: 15-in x 55-in; Actual: 14.5-in x 54.5-in) at Lowes.com",
            "url": "https://m.lowes.com/pd/Severe-Weather-2-Pack-Earthen-Red-Louvered-Vinyl-Exterior-Shutters-Common-15-in-x-55-in-Actual-14-5-in-x-54-5-in/3666852",
            "client_id": "8mPDqvvF7rd+Y8Em8V5F7w\u003d\u003d",
            "time_usec": 1503066419159933
},
        {
            "page_transition": "LINK",
            "title": "Shop Severe Weather 2-Pack Black Louvered Vinyl Exterior Shutters (Common: 15-in x 55-in; Actual: 14.5-in x 54.5-in) at Lowes.com",
            "url": "https://m.lowes.com/pd/Severe-Weather-2-Pack-Black-Louvered-Vinyl-Exterior-Shutters-Common-15-in-x-55-in-Actual-14-5-in-x-54-5-in/3666544",
            "client_id": "8mPDqvvF7rd+Y8Em8V5F7w\u003d\u003d",
            "time_usec": 1503066390088547
},
        {
            "page_transition": "LINK",
            "title": "Shop Exterior Shutters at Lowes.com",
            "url": "https://m.lowes.com/pl/Exterior-shutters-Exterior-shutters-accessories-Windows-doors/4294775786?cm_mmc\u003dsearch_google-_-Millwork-_-B_mlw_135_millwork+Windows_bmm-_-+lowe%27s++shutters\u0026k_clickID\u003defbd9e19-1588-4c54-8c7e-2fdc70314c3d\u0026gclid\u003dCODx_Mn-4NUCFY-2wAodKdsJKg",
            "client_id": "8mPDqvvF7rd+Y8Em8V5F7w\u003d\u003d",
            "time_usec": 1503066378133335
},
        {
            "page_transition": "LINK",
            "title": "Engagement Window",
            "url": "https://lpcdn.lpsnmedia.net/le_unified_window/8.13.2.0-release_1579/index.html?lpUnifiedWindowConfig\u003d%7B%22accountId%22%3A%2222554410%22%2C%22env%22%3A%22prod%22%2C%22external%22%3Atrue%2C%22supportBlockCCPattern%22%3Atrue%2C%22engConf%22%3A%7B%22async%22%3Afalse%2C%22scid%22%3A%223%22%2C%22cid%22%3A202868514%2C%22eid%22%3A202868714%2C%22lang%22%3A%22en-US%22%2C%22svid%22%3A%22g5MDE4NDRjYmZmYzNjNWQz%22%2C%22ssid%22%3A%22Ca8imcD8RB-WfkkikiFmAA%22%2C%22lewid%22%3A1274347812%2C%22skill%22%3A%22sales-windows_doors-english%22%7D%7D",
            "client_id": "8mPDqvvF7rd+Y8Em8V5F7w\u003d\u003d",
            "time_usec": 1503066367715954
},
        {
            "page_transition": "LINK",
            "title": "Shop Severe Weather 2-Pack Black Raised Panel Vinyl Exterior Shutters (Common: 15-in x 59-in; Actual: 14.5-in x 58.5-in) at Lowes.com",
            "url": "https://m.lowes.com/pd/Severe-Weather-2-Pack-Black-Raised-Panel-Vinyl-Exterior-Shutters-Common-15-in-x-59-in-Actual-14-5-in-x-58-5-in/3666568",
            "client_id": "8mPDqvvF7rd+Y8Em8V5F7w\u003d\u003d",
            "time_usec": 1503066360993492
},
        {
            "page_transition": "LINK",
            "title": "Shop Exterior Shutters at Lowes.com",
            "url": "https://m.lowes.com/pl/Exterior-shutters-Exterior-shutters-accessories-Windows-doors/4294775786?cm_mmc\u003dsearch_google-_-Millwork-_-B_mlw_135_millwork+Windows_bmm-_-+lowe%27s++shutters\u0026amp;k_clickID\u003defbd9e19-1588-4c54-8c7e-2fdc70314c3d\u0026amp;gclid\u003dCKiD0Ib-4NUCFRy5wAodA2wC0A",
            "client_id": "8mPDqvvF7rd+Y8Em8V5F7w\u003d\u003d",
            "time_usec": 1503066326905859
},
        {
            "page_transition": "LINK",
            "title": "Shop Exterior Shutters at Lowes.com",
            "url": "https://m.lowes.com/pl/Exterior-shutters-Exterior-shutters-accessories-Windows-doors/4294775786?cm_mmc\u003dsearch_google-_-Millwork-_-B_mlw_135_millwork+Windows_bmm-_-+lowe%27s++shutters\u0026k_clickID\u003defbd9e19-1588-4c54-8c7e-2fdc70314c3d\u0026gclid\u003dCKiD0Ib-4NUCFRy5wAodA2wC0A",
            "client_id": "8mPDqvvF7rd+Y8Em8V5F7w\u003d\u003d",
            "time_usec": 1503066241954349
},
        {
            "page_transition": "LINK",
            "title": "Shop Exterior Shutters at Lowes.com",
            "url": "https://m.lowes.com/pl/Exterior-shutters-Exterior-shutters-accessories-Windows-doors/4294775786?cm_mmc\u003dsearch_google-_-Millwork-_-B_mlw_135_millwork%20Windows_bmm-_-%2Blowe%27s%20%2Bshutters\u0026k_clickID\u003defbd9e19-1588-4c54-8c7e-2fdc70314c3d\u0026gclid\u003dCKiD0Ib-4NUCFRy5wAodA2wC0A",
            "client_id": "8mPDqvvF7rd+Y8Em8V5F7w\u003d\u003d",
            "time_usec": 1503066234485152
},
        {
            "page_transition": "LINK",
            "title": "",
            "url": "http://www.mylife.com/inboxMessages.do?cf\u003dmailingLink",
            "client_id": "8mPDqvvF7rd+Y8Em8V5F7w\u003d\u003d",
            "time_usec": 1503013246323211
},
        {
            "page_transition": "LINK",
            "title": "",
            "url": "http://www.mylife.com/inboxMessageDetails.do?id\u003d94349503",
            "client_id": "8mPDqvvF7rd+Y8Em8V5F7w\u003d\u003d",
            "time_usec": 1503013201693937
},
        {
            "page_transition": "LINK",
            "title": "",
            "url": "http://www.mylife.com/inboxMessages.do?cf\u003dmailingLink",
            "client_id": "8mPDqvvF7rd+Y8Em8V5F7w\u003d\u003d",
            "time_usec": 1503013187848851
},
        {
            "page_transition": "RELOAD",
            "title": "Personal info \u0026 privacy",
            "url": "https://myaccount.google.com/privacy?hl\u003den-US\u0026utm_source\u003dudc\u0026utm_medium\u003dudc\u0026pli\u003d1#activity",
            "client_id": "8mPDqvvF7rd+Y8Em8V5F7w\u003d\u003d",
            "time_usec": 1503013103925606
},
        {
            "page_transition": "RELOAD",
            "title": "",
            "url": "https://myaccount.google.com/privacy?hl\u003den-US\u0026utm_source\u003dudc\u0026utm_medium\u003dudc\u0026pli\u003d1#activity",
            "client_id": "8mPDqvvF7rd+Y8Em8V5F7w\u003d\u003d",
            "time_usec": 1503013102652870
},
        {
            "page_transition": "RELOAD",
            "title": "Personal info \u0026 privacy",
            "url": "https://myaccount.google.com/privacy?hl\u003den-US\u0026utm_source\u003dudc\u0026utm_medium\u003dudc\u0026pli\u003d1#activity",
            "client_id": "8mPDqvvF7rd+Y8Em8V5F7w\u003d\u003d",
            "time_usec": 1503013102343015
},
        {
            "page_transition": "LINK",
            "title": "Mineola Community Bank, Mineola, Texas",
            "url": "https://www.mineolacb.com/",
            "client_id": "8mPDqvvF7rd+Y8Em8V5F7w\u003d\u003d",
            "time_usec": 1503009330612171
},
        {
            "page_transition": "LINK",
            "title": "Contact",
            "url": "https://www.mineolacb.com/contact",
            "client_id": "8mPDqvvF7rd+Y8Em8V5F7w\u003d\u003d",
            "time_usec": 1503009275993206
},
        {
            "page_transition": "LINK",
            "title": "Mineola Community Bank, Mineola, Texas",
            "url": "https://www.mineolacb.com/",
            "client_id": "8mPDqvvF7rd+Y8Em8V5F7w\u003d\u003d",
            "time_usec": 1503009268006153
},
        {
            "page_transition": "FORM_SUBMIT",
            "title": "Mineola Community Bank",
            "url": "https://secure.mineolacb.com/Login/XLoginError",
            "client_id": "8mPDqvvF7rd+Y8Em8V5F7w\u003d\u003d",
            "time_usec": 1503009255558316
},
        {
            "page_transition": "LINK",
            "title": "Mineola Community Bank, Mineola, Texas",
            "url": "https://www.mineolacb.com/",
            "client_id": "8mPDqvvF7rd+Y8Em8V5F7w\u003d\u003d",
            "time_usec": 1503009232694606
},
        {
            "page_transition": "LINK",
            "title": "Mineola Community Bank",
            "url": "https://secure.mineolacb.com/Login/XLoginError",
            "client_id": "8mPDqvvF7rd+Y8Em8V5F7w\u003d\u003d",
            "time_usec": 1503009222468825
},
        {
            "page_transition": "LINK",
            "title": "RadioShack",
            "url": "https://www.radioshack.com/apps/store-locator",
            "client_id": "8mPDqvvF7rd+Y8Em8V5F7w\u003d\u003d",
            "time_usec": 1503001746223414
},
        {
            "page_transition": "LINK",
            "title": "RadioShack",
            "url": "https://www.radioshack.com/apps/store-locator",
            "client_id": "8mPDqvvF7rd+Y8Em8V5F7w\u003d\u003d",
            "time_usec": 1503001729740711
},
        {
            "page_transition": "LINK",
            "title": "Sign in - Google Accounts",
            "url": "https://accounts.google.com/SignOutOptions?continue\u003dhttps://myaccount.google.com/notifications",
            "client_id": "8mPDqvvF7rd+Y8Em8V5F7w\u003d\u003d",
            "time_usec": 1502997965644145
},
        {
            "page_transition": "LINK",
            "title": "Recent security events",
            "url": "https://myaccount.google.com/notifications",
            "client_id": "8mPDqvvF7rd+Y8Em8V5F7w\u003d\u003d",
            "time_usec": 1502997943762924
},
        {
            "page_transition": "LINK",
            "title": "Sign-in \u0026 security",
            "url": "https://myaccount.google.com/security",
            "client_id": "8mPDqvvF7rd+Y8Em8V5F7w\u003d\u003d",
            "time_usec": 1502997908609176
},
        {
            "page_transition": "LINK",
            "title": "Security Checkup",
            "url": "https://myaccount.google.com/secureaccount",
            "client_id": "8mPDqvvF7rd+Y8Em8V5F7w\u003d\u003d",
            "time_usec": 1502997721921739
},
        {
            "page_transition": "LINK",
            "title": "Sign-in \u0026 security",
            "url": "https://myaccount.google.com/security",
            "client_id": "8mPDqvvF7rd+Y8Em8V5F7w\u003d\u003d",
            "time_usec": 1502997716950769
},
        {
            "page_transition": "LINK",
            "title": "Personal info \u0026 privacy",
            "url": "https://myaccount.google.com/privacy?hl\u003den-US\u0026utm_source\u003dudc\u0026utm_medium\u003dudc\u0026pli\u003d1#activity",
            "client_id": "8mPDqvvF7rd+Y8Em8V5F7w\u003d\u003d",
            "time_usec": 1502995312037770
},
        {
            "page_transition": "LINK",
            "title": "Your Circles - Google+",
            "url": "https://plus.google.com/people/haveyou",
            "client_id": "8mPDqvvF7rd+Y8Em8V5F7w\u003d\u003d",
            "time_usec": 1502988835248128
},
        {
            "page_transition": "LINK",
            "title": "Your Circles - Google+",
            "url": "https://plus.google.com/people/haveyou",
            "client_id": "8mPDqvvF7rd+Y8Em8V5F7w\u003d\u003d",
            "time_usec": 1502988833316527
},
        {
            "page_transition": "LINK",
            "title": "Your Circles - Google+",
            "url": "https://plus.google.com/circles",
            "client_id": "8mPDqvvF7rd+Y8Em8V5F7w\u003d\u003d",
            "time_usec": 1502988809499416
},
        {
            "page_transition": "LINK",
            "title": "Settings - Google+",
            "url": "https://plus.google.com/settings",
            "client_id": "8mPDqvvF7rd+Y8Em8V5F7w\u003d\u003d",
            "time_usec": 1502988809483471
},
        {
            "page_transition": "LINK",
            "title": "Settings - Google+",
            "url": "https://plus.google.com/settings",
            "client_id": "8mPDqvvF7rd+Y8Em8V5F7w\u003d\u003d",
            "time_usec": 1502988795912501
},
        {
            "page_transition": "LINK",
            "title": "Settings - Google+",
            "url": "https://plus.google.com/settings",
            "client_id": "8mPDqvvF7rd+Y8Em8V5F7w\u003d\u003d",
            "time_usec": 1502988699273752
},
        {
            "page_transition": "LINK",
            "title": "Activity controls",
            "url": "https://myaccount.google.com/activitycontrols?utm_source\u003dmy-activity\u0026utm_medium\u003dhome\u0026utm_campaign\u0026continue\u003dhttps%3A%2F%2Fmyactivity.google.com%2Fmyactivity%3Futm_source%3Dhelp%26utm_campaign%3Dcontinue",
            "client_id": "8mPDqvvF7rd+Y8Em8V5F7w\u003d\u003d",
            "time_usec": 1502988660493191
},
        {
            "page_transition": "LINK",
            "title": "Google - My Activity",
            "url": "https://myactivity.google.com/myactivity?utm_source\u003dhelp",
            "client_id": "8mPDqvvF7rd+Y8Em8V5F7w\u003d\u003d",
            "time_usec": 1502988642440535
},
        {
            "page_transition": "LINK",
            "title": "View \u0026 control activity on your account - Google Account Help",
            "url": "https://support.google.com/accounts/answer/7028918",
            "client_id": "8mPDqvvF7rd+Y8Em8V5F7w\u003d\u003d",
            "time_usec": 1502988626005685
},
        {
            "page_transition": "LINK",
            "title": "See and control your search activity - Google Search Help",
            "url": "https://support.google.com/websearch/answer/54068",
            "client_id": "8mPDqvvF7rd+Y8Em8V5F7w\u003d\u003d",
            "time_usec": 1502988587549344
},
        {
            "page_transition": "LINK",
            "title": "Sign in to Chrome - Android - Google Chrome Help",
            "url": "https://support.google.com/chrome/answer/185277",
            "client_id": "8mPDqvvF7rd+Y8Em8V5F7w\u003d\u003d",
            "time_usec": 1502988518480123
},
        {
            "page_transition": "LINK",
            "title": "Sync Chrome data across devices - Android - Google Chrome Help",
            "url": "https://support.google.com/chrome/answer/165139",
            "client_id": "8mPDqvvF7rd+Y8Em8V5F7w\u003d\u003d",
            "time_usec": 1502988487238480
},
        {
            "page_transition": "LINK",
            "title": "Sync and view tabs and history across devices - Android - Google Chrome Help",
            "url": "https://support.google.com/chrome/answer/2591582?visit_id\u003d1-636384558679662234-1198212787\u0026p\u003dsync_history\u0026rd\u003d1",
            "client_id": "8mPDqvvF7rd+Y8Em8V5F7w\u003d\u003d",
            "time_usec": 1502988440542733
},
        {
            "page_transition": "RELOAD",
            "title": "Google - My Activity",
            "url": "https://myactivity.google.com/item?utm_source\u003dmy-account\u0026utm_medium\u003d\u0026utm_campaign\u003d",
            "client_id": "8mPDqvvF7rd+Y8Em8V5F7w\u003d\u003d",
            "time_usec": 1502988272262029
},
        {
            "page_transition": "RELOAD",
            "title": "Spiral stair plans pictures",
            "url": "http://www.jself.com/stair/customer/Customer8.htm",
            "client_id": "8mPDqvvF7rd+Y8Em8V5F7w\u003d\u003d",
            "time_usec": 1502988256821859
},
        {
            "page_transition": "FORM_SUBMIT",
            "title": "TruthFinder",
            "url": "https://www.truthfinder.com/dashboard/report/49126599/person/ecec6cd8-4644-4871-b79b-ffdf7106bd34/?search-first-name\u003dRicky\u0026search-last-name\u003dRiley\u0026search-state\u003dTX",
            "client_id": "8mPDqvvF7rd+Y8Em8V5F7w\u003d\u003d",
            "time_usec": 1502953202977816
},
        {
            "page_transition": "FORM_SUBMIT",
            "title": "TruthFinder",
            "url": "https://www.truthfinder.com/dashboard/search/person/?first\u003dRicky\u0026last\u003dRiley\u0026city\u003dBonham\u0026state\u003dTX",
            "client_id": "8mPDqvvF7rd+Y8Em8V5F7w\u003d\u003d",
            "time_usec": 1502953178334521
},
        {
            "page_transition": "LINK",
            "title": "ricardo alvee - Google+",
            "url": "https://plus.google.com/115069322915817489636",
            "client_id": "8mPDqvvF7rd+Y8Em8V5F7w\u003d\u003d",
            "time_usec": 1502951167548235
},
        {
            "page_transition": "LINK",
            "title": "Album Archive",
            "url": "https://get.google.com/u/0/albumarchive/115069322915817489636",
            "client_id": "8mPDqvvF7rd+Y8Em8V5F7w\u003d\u003d",
            "time_usec": 1502951165196097
},
        {
            "page_transition": "LINK",
            "title": "Album Archive - Photos from posts",
            "url": "https://get.google.com/u/0/albumarchive/115069322915817489636/albums/photos-from-posts",
            "client_id": "8mPDqvvF7rd+Y8Em8V5F7w\u003d\u003d",
            "time_usec": 1502951162116738
},
        {
            "page_transition": "LINK",
            "title": "Album Archive",
            "url": "https://get.google.com/u/0/albumarchive/115069322915817489636",
            "client_id": "8mPDqvvF7rd+Y8Em8V5F7w\u003d\u003d",
            "time_usec": 1502951155391526
},
        {
            "page_transition": "LINK",
            "title": "Album Archive",
            "url": "https://get.google.com/u/0/albumarchive/115069322915817489636",
            "client_id": "8mPDqvvF7rd+Y8Em8V5F7w\u003d\u003d",
            "time_usec": 1502951148727842
},
        {
            "page_transition": "LINK",
            "title": "ricardo alvee - Google+",
            "url": "https://plus.google.com/115069322915817489636",
            "client_id": "8mPDqvvF7rd+Y8Em8V5F7w\u003d\u003d",
            "time_usec": 1502951131083267
},
        {
            "page_transition": "LINK",
            "title": "ricardo alvee - Google+",
            "url": "https://plus.google.com/115069322915817489636",
            "client_id": "8mPDqvvF7rd+Y8Em8V5F7w\u003d\u003d",
            "time_usec": 1502951018143104
},
        {
            "page_transition": "FORM_SUBMIT",
            "title": "TruthFinder",
            "url": "https://www.truthfinder.com/dashboard/report/49126599/person/d2da7120-a84c-4f66-8847-be9c71cf9b74/?search-first-name\u003dRichard\u0026search-last-name\u003dAlvarez\u0026search-state\u003dCA",
            "client_id": "8mPDqvvF7rd+Y8Em8V5F7w\u003d\u003d",
            "time_usec": 1502950845377709
},
        {
            "page_transition": "LINK",
            "title": "TruthFinder",
            "url": "https://www.truthfinder.com/dashboard/search/person/?first\u003dRichard\u0026last\u003dAlvarez\u0026city\u003dRohnart%20park\u0026state\u003dCA",
            "client_id": "8mPDqvvF7rd+Y8Em8V5F7w\u003d\u003d",
            "time_usec": 1502950789222564
},
        {
            "page_transition": "LINK",
            "title": "TruthFinder",
            "url": "https://www.truthfinder.com/dashboard/report/49126599/location/6955bf78-e85e-47bf-a2aa-92ab331bc6b7/?#residents",
            "client_id": "8mPDqvvF7rd+Y8Em8V5F7w\u003d\u003d",
            "time_usec": 1502950743402175
},
        {
            "page_transition": "TYPED",
            "title": "TruthFinder",
            "url": "https://www.truthfinder.com/dashboard/report/49126599/location/6955bf78-e85e-47bf-a2aa-92ab331bc6b7/?#neighbors",
            "client_id": "8mPDqvvF7rd+Y8Em8V5F7w\u003d\u003d",
            "time_usec": 1502950293027939
},
        {
            "page_transition": "RELOAD",
            "title": "Spiral stair plans pictures",
            "url": "http://www.jself.com/stair/customer/Customer8.htm",
            "client_id": "8mPDqvvF7rd+Y8Em8V5F7w\u003d\u003d",
            "time_usec": 1502939531294506
},
        {
            "page_transition": "LINK",
            "title": "New Website Reveals Personal Information Even Google Can\u0027t Find",
            "url": "https://www.truthfinder.com/beacon/?utm_source\u003dMWZ\u0026traffic[source]\u003dMWZ\u0026utm_medium\u003dNetwork\u0026traffic[medium]\u003dNetwork\u0026utm_campaign\u003d183466\u0026traffic[campaign]\u003d217w7r000006Njuo0SlQLR1DAznZ000.:183466\u0026utm_term\u003d693413\u0026traffic[term]\u003d693413\u0026utm_content\u003d\u0026traffic[content]\u003d\u0026s1\u003d183466\u0026s2\u003d217w7r000006Njuo0SlQLR1DAznZ000.\u0026s3\u003d693413\u0026s4\u003d\u0026s5\u003d",
            "client_id": "8mPDqvvF7rd+Y8Em8V5F7w\u003d\u003d",
            "time_usec": 1502939515839906
},
        {
            "page_transition": "FORM_SUBMIT",
            "title": "Richard Alvarez TX - TruthFinder",
            "url": "https://www.truthfinder.com/results/?firstName\u003dRichard\u0026lastName\u003dAlvarez\u0026state\u003dTX\u0026qLocation\u003dfalse\u0026qRelatives\u003dfalse\u0026qOver30\u003dtrue",
            "client_id": "8mPDqvvF7rd+Y8Em8V5F7w\u003d\u003d",
            "time_usec": 1502939306915758
},
        {
            "page_transition": "FORM_SUBMIT",
            "title": "Searching for RichardAlvarez in TX - TruthFinder",
            "url": "https://www.truthfinder.com/search/?firstName\u003dRichard\u0026lastName\u003dAlvarez\u0026state\u003dTX",
            "client_id": "8mPDqvvF7rd+Y8Em8V5F7w\u003d\u003d",
            "time_usec": 1502939262078584
},
        {
            "page_transition": "LINK",
            "title": "New Website Reveals Personal Information Even Google Can\u0027t Find",
            "url": "https://www.truthfinder.com/beacon/?utm_source\u003dMWZ\u0026traffic[source]\u003dMWZ\u0026utm_medium\u003dNetwork\u0026traffic[medium]\u003dNetwork\u0026utm_campaign\u003d183466\u0026traffic[campaign]\u003d217w7r000006Njuo0SlQLR1DAznZ000.:183466\u0026utm_term\u003d693413\u0026traffic[term]\u003d693413\u0026utm_content\u003d\u0026traffic[content]\u003d\u0026s1\u003d183466\u0026s2\u003d217w7r000006Njuo0SlQLR1DAznZ000.\u0026s3\u003d693413\u0026s4\u003d\u0026s5\u003d",
            "client_id": "8mPDqvvF7rd+Y8Em8V5F7w\u003d\u003d",
            "time_usec": 1502939213050643
},
        {
            "page_transition": "FORM_SUBMIT",
            "title": "Joseph Richards TX - TruthFinder",
            "url": "https://www.truthfinder.com/results/?firstName\u003dJoseph\u0026lastName\u003dRichards\u0026state\u003dTX\u0026qLocation\u003dfalse\u0026qRelatives\u003dfalse\u0026qOver30\u003dtrue",
            "client_id": "8mPDqvvF7rd+Y8Em8V5F7w\u003d\u003d",
            "time_usec": 1502939202139718
},
        {
            "page_transition": "FORM_SUBMIT",
            "title": "Joseph Richards TX - TruthFinder",
            "url": "https://www.truthfinder.com/results/?firstName\u003dJoseph\u0026middleInitial\u003d\u0026lastName\u003dRichards\u0026city\u003dBonham\u0026state\u003dTX\u0026age\u003d",
            "client_id": "8mPDqvvF7rd+Y8Em8V5F7w\u003d\u003d",
            "time_usec": 1502939174895323
},
        {
            "page_transition": "LINK",
            "title": "TruthFinder",
            "url": "https://www.truthfinder.com/dashboard/report/49126599/location/7f4b297a-f968-4805-b55c-8b6e86f21124/?#neighbors",
            "client_id": "8mPDqvvF7rd+Y8Em8V5F7w\u003d\u003d",
            "time_usec": 1502939061119399
},
        {
            "page_transition": "LINK",
            "title": "TruthFinder",
            "url": "https://www.truthfinder.com/dashboard/report/49126599/location/7f4b297a-f968-4805-b55c-8b6e86f21124/?#location",
            "client_id": "8mPDqvvF7rd+Y8Em8V5F7w\u003d\u003d",
            "time_usec": 1502939057982150
},
        {
            "page_transition": "LINK",
            "title": "TruthFinder",
            "url": "https://www.truthfinder.com/dashboard/report/49126599/location/7f4b297a-f968-4805-b55c-8b6e86f21124/?#neighbors",
            "client_id": "8mPDqvvF7rd+Y8Em8V5F7w\u003d\u003d",
            "time_usec": 1502939057842618
},
        {
            "page_transition": "LINK",
            "title": "TruthFinder",
            "url": "https://www.truthfinder.com/dashboard/report/49126599/location/7f4b297a-f968-4805-b55c-8b6e86f21124/?#location",
            "client_id": "8mPDqvvF7rd+Y8Em8V5F7w\u003d\u003d",
            "time_usec": 1502939052019627
},
        {
            "page_transition": "LINK",
            "title": "TruthFinder",
            "url": "https://www.truthfinder.com/dashboard/report/49126599/location/7f4b297a-f968-4805-b55c-8b6e86f21124/?#neighbors",
            "client_id": "8mPDqvvF7rd+Y8Em8V5F7w\u003d\u003d",
            "time_usec": 1502939050686762
},
        {
            "page_transition": "LINK",
            "title": "TruthFinder",
            "url": "https://www.truthfinder.com/dashboard/report/49126599/location/7f4b297a-f968-4805-b55c-8b6e86f21124/?#neighbors",
            "client_id": "8mPDqvvF7rd+Y8Em8V5F7w\u003d\u003d",
            "time_usec": 1502938963893265
},
        {
            "page_transition": "LINK",
            "title": "TruthFinder",
            "url": "https://www.truthfinder.com/dashboard/report/49126599/location/7f4b297a-f968-4805-b55c-8b6e86f21124/?#neighbors",
            "client_id": "8mPDqvvF7rd+Y8Em8V5F7w\u003d\u003d",
            "time_usec": 1502938940384979
},
        {
            "page_transition": "LINK",
            "title": "2spJ_e--c6qW7MYqHwKD5aOHM5bNV40FS6PmXYNwzEtnugZnd036umiqnrxzLkAK1j7qn15hQQBs3_yTXOur5_Ptq3vl19VCNiebobg70qHJP02cJjUwJFzy4KesJX9xnl9JOmWwoMgZH-1CyAikLSNSxnvZAvI\u003d (200×200)",
            "url": "https://www.truthfinder.com/data/image/2spJ_e--c6qW7MYqHwKD5aOHM5bNV40FS6PmXYNwzEtnugZnd036umiqnrxzLkAK1j7qn15hQQBs3_yTXOur5_Ptq3vl19VCNiebobg70qHJP02cJjUwJFzy4KesJX9xnl9JOmWwoMgZH-1CyAikLSNSxnvZAvI\u003d",
            "client_id": "8mPDqvvF7rd+Y8Em8V5F7w\u003d\u003d",
